[
  {
    "city": "Bogotá",
    "state": "Bogotá D.C.",
    "latitude": 4.571123,
    "longitude": -74.106909,
    "name": "Fundación Hospital San Carlos",
    "address": "KR 12D 32- 44 SUR"
  },
  {
    "city": "Bogotá",
    "state": "Bogotá D.C.",
    "latitude": 4.685625,
    "longitude": -74.051686,
    "name": "Central de Urgencias y Especialistas Calle 100 ESIMED",
    "address": "Calle 100 NO. 19-05"
  },
  {
    "city": "Bogotá",
    "state": "Bogotá D.C.",
    "latitude": 4.692272,
    "longitude": -74.056724,
    "name": "Clínica ESIMED Jorge Piñeros Corpas",
    "address": "Autopista Norte # 104 A - 33"
  },
  {
    "city": "Bogotá",
    "state": "Bogotá D.C.",
    "latitude": 4.587103,
    "longitude": -74.08656,
    "name": "Clínica ESIMED Policarpa",
    "address": "Carrera 10 # 1C - 07 Sur"
  },
  {
    "city": "Bogotá",
    "state": "Bogotá D.C.",
    "latitude": 4.704183,
    "longitude": -74.044881,
    "name": "Clínica ESIMED Santa Bibiana",
    "address": "AC 127 # 16A-27: Piso 1 Sector oriental y sector occidental- Piso 2 sector suroriental y sector suroccidental- Piso 3- Piso 4 CS 401, 402, 405A, 405B Y 421)- Piso 5 sector oriental- Piso 6 sector oriental y Piso 7."
  },
  {
    "city": "Bogotá",
    "state": "Bogotá D.C.",
    "latitude": 4.605309,
    "longitude": -74.099405,
    "name": "Clínica ESIMED Veraguas",
    "address": "Calle 5 # 30 - 18"
  },
  {
    "city": "Bogotá",
    "state": "Bogotá D.C.",
    "latitude": 4.639182,
    "longitude": -74.1169,
    "name": "Centro de Atención de Urgencias AV. 68 ESIMED",
    "address": "AV 68 No.13 71"
  },
  {
    "city": "Bogotá",
    "state": "Bogotá D.C.",
    "latitude": 4.651562,
    "longitude": -74.05696,
    "name": "Clínica La Inmaculada",
    "address": "CRA 7 # 68 70"
  },
  {
    "city": "Bogotá",
    "state": "Bogotá D.C.",
    "latitude": 4.639039,
    "longitude": -74.06861,
    "name": "Centro de Atención en Salud Cafam Clínica",
    "address": "Calle 51 No. 15- 34"
  },
  {
    "city": "Bogotá",
    "state": "Bogotá D.C.",
    "latitude": 4.686133,
    "longitude": -74.075281,
    "name": "Centro de Atención en Salud Cafam Floresta",
    "address": "AK 68 No.90-88"
  },
  {
    "city": "Bogotá",
    "state": "Bogotá D.C.",
    "latitude": 4.747028,
    "longitude": -74.084399,
    "name": "Centro de Atención en Salud Cafam Suba",
    "address": "TV 114 # 142 A 90"
  },
  {
    "city": "Bogotá",
    "state": "Bogotá D.C.",
    "latitude": 4.695174,
    "longitude": -74.03335,
    "name": "Fundación Santa Fé de Bogotá",
    "address": "CL 119 # 7 75"
  },
  {
    "city": "Bogotá",
    "state": "Bogotá D.C.",
    "latitude": 4.576944,
    "longitude": -74.091148,
    "name": "Hospital Universitario Clínica San Rafael",
    "address": "CRA 8 # 17 45 SUR"
  },
  {
    "city": "Bogotá",
    "state": "Bogotá D.C.",
    "latitude": 4.593275,
    "longitude": -74.088483,
    "name": "Fundación Hospital de la Misericordia",
    "address": "Avenida Carrera 14 No 1-65"
  },
  {
    "city": "Bogotá",
    "state": "Bogotá D.C.",
    "latitude": 4.638296,
    "longitude": -74.125583,
    "name": "Clínica de Nuestra Señora de la Paz",
    "address": "Calle 13 # 68 F 25"
  },
  {
    "city": "Bogotá",
    "state": "Bogotá D.C.",
    "latitude": 4.588094,
    "longitude": -74.084144,
    "name": "Instituto Nacional de Cancerología - Empresa Social del Estado",
    "address": "Cl 1 No 9-85"
  },
  {
    "city": "Bogotá",
    "state": "Bogotá D.C.",
    "latitude": 4.698296,
    "longitude": -74.073222,
    "name": "Fundación Abood Shaio",
    "address": "Diag 115 A # 70 C 75"
  },
  {
    "city": "Bogotá",
    "state": "Bogotá D.C.",
    "latitude": 4.672904,
    "longitude": -74.089461,
    "name": "Cruz Roja Colombiana Seccional Cundinamarca y Bogotá",
    "address": "AK 68 No 68 B 31"
  },
  {
    "city": "Bogotá",
    "state": "Bogotá D.C.",
    "latitude": 4.727361,
    "longitude": -74.049671,
    "name": "Cruz Roja Colombiana Seccional Cundinamarca y Bogotá Sede Norte",
    "address": "Av. Cra. 45 No. 145 - 64 primer piso, segundo piso:consultorios 201, 202, 203, 204, 206, 207,208, 209 y 210"
  },
  {
    "city": "Bogotá",
    "state": "Bogotá D.C.",
    "latitude": 4.606783,
    "longitude": -74.130909,
    "name": "Cruz Roja Colombiana Seccional Cundinamarca y Bogotá Sede Alquería",
    "address": "Av. CRA. 68 No. 31 - 41 SUR"
  },
  {
    "city": "Bogotá",
    "state": "Bogotá D.C.",
    "latitude": 4.63416,
    "longitude": -74.070798,
    "name": "Clínica Nueva",
    "address": "CL 45 F # 16 A 11"
  },
  {
    "city": "Bogotá",
    "state": "Bogotá D.C.",
    "latitude": 4.693775,
    "longitude": -74.055513,
    "name": "Clínica Vascular Navarra LTDA / Clínica Navarra",
    "address": "AK 45 # 106 30"
  },
  {
    "city": "Bogotá",
    "state": "Bogotá D.C.",
    "latitude": 4.685842,
    "longitude": -74.053174,
    "name": "Salud Sura Calle 100 Bogotá",
    "address": "Cl. 100 No. 19 A - 35"
  },
  {
    "city": "Bogotá",
    "state": "Bogotá D.C.",
    "latitude": 4.677321,
    "longitude": -74.057528,
    "name": "Clínica de la Mujer",
    "address": "KR 19 C # 91 17"
  },
  {
    "city": "Bogotá",
    "state": "Bogotá D.C.",
    "latitude": 4.692535,
    "longitude": -74.098201,
    "name": "Clínica Partenon",
    "address": "Calle 74 # 76 65"
  },
  {
    "city": "Bogotá",
    "state": "Bogotá D.C.",
    "latitude": 4.652156,
    "longitude": -74.061055,
    "name": "Clínica Infantil Colsubsidio",
    "address": "Calle 67 # 10 - 27"
  },
  {
    "city": "Bogotá",
    "state": "Bogotá D.C.",
    "latitude": 4.615126,
    "longitude": -74.172791,
    "name": "Clínica Colsubsidio Ciudad Roma",
    "address": "Calle 53 Sur # 79 D 71"
  },
  {
    "city": "Bogotá",
    "state": "Bogotá D.C.",
    "latitude": 4.576452,
    "longitude": -74.118791,
    "name": "Centro Médico Colsubsidio Quiroga",
    "address": "CL 38 Sur # 18 30"
  },
  {
    "city": "Bogotá",
    "state": "Bogotá D.C.",
    "latitude": 4.627436,
    "longitude": -74.14505,
    "name": "EUSALUD Clínica de Traumatología y Ortopedia",
    "address": "KR 78 # 3 A 40"
  },
  {
    "city": "Bogotá",
    "state": "Bogotá D.C.",
    "latitude": 4.630429,
    "longitude": -74.130829,
    "name": "Clínica de Ortopedia y Accidentes Laborales",
    "address": "Calle 6 A # 70 - 06"
  },
  {
    "city": "Bogotá",
    "state": "Bogotá D.C.",
    "latitude": 4.603589,
    "longitude": -74.086106,
    "name": "Sociedad de Cirugía de Bogotá - Hospital de San José",
    "address": "CL 10 No. 18 - 75"
  },
  {
    "city": "Bogotá",
    "state": "Bogotá D.C.",
    "latitude": 4.636171,
    "longitude": -74.073703,
    "name": "Clínica Palermo",
    "address": "Calle 45 C No. 22-02"
  },
  {
    "city": "Bogotá",
    "state": "Bogotá D.C.",
    "latitude": 4.761627,
    "longitude": -74.092422,
    "name": "Clínica Juan N Corpas LTDA",
    "address": "KR 111 # 159 A 61"
  },
  {
    "city": "Bogotá",
    "state": "Bogotá D.C.",
    "latitude": 4.741317,
    "longitude": -74.034499,
    "name": "Fundación Cardio Infantil Instituto de Cardiología",
    "address": "CL 163 A # 13 B 60"
  },
  {
    "city": "Bogotá",
    "state": "Bogotá D.C.",
    "latitude": 4.583767,
    "longitude": -74.105635,
    "name": "Centro Policlínico del Olaya",
    "address": "CRA 21 NO. 22-68 SUR"
  },
  {
    "city": "Bogotá",
    "state": "Bogotá D.C.",
    "latitude": 4.706894,
    "longitude": -74.052004,
    "name": "Clínica Reina Sofía",
    "address": "CR. 21 NO. 127 - 03 / AC 127 21 - 60 CN 106, 107, 108, 109, 110 LC 107, 108, 109, 111"
  },
  {
    "city": "Bogotá",
    "state": "Bogotá D.C.",
    "latitude": 4.657202,
    "longitude": -74.06981,
    "name": "Clínica Universitaria Colombia",
    "address": "CL 23 No. 66 - 46 Int. 5, Int.4 Piso 3 CN 201, 202, 203, 204, 205, 206, 208, 511, 512, 513, 514, 704, 708, 712, 719, 720, 721, 722, 723, 725, 727, 814, 911, 920, 921, 927, 1009, 1013, 1214, 301, 305, 320, 919 UN 103"
  },
  {
    "city": "Bogotá",
    "state": "Bogotá D.C.",
    "latitude": 4.706311,
    "longitude": -74.050824,
    "name": "Clínica Pediátrica",
    "address": "AC 127 20 56"
  },
  {
    "city": "Bogotá",
    "state": "Bogotá D.C.",
    "latitude": 4.58713,
    "longitude": -74.083578,
    "name": "Empresa Social del Estado Hospital Universitario de la Samaritana",
    "address": "CRA 8 # 0 29 Sur"
  },
  {
    "city": "Bogotá",
    "state": "Bogotá D.C.",
    "latitude": 4.636934,
    "longitude": -74.065411,
    "name": "Clínica de Marly",
    "address": "CL 50 # 9 67"
  },
  {
    "city": "Bogotá",
    "state": "Bogotá D.C.",
    "latitude": 4.628348,
    "longitude": -74.064334,
    "name": "Hospital Universitario San Ignacio",
    "address": "CRA 7 # 40 62"
  },
  {
    "city": "Bogotá",
    "state": "Bogotá D.C.",
    "latitude": 4.627803,
    "longitude": -74.12138,
    "name": "Virrey Solis I.P.S S.A. Américas",
    "address": "AV Las Américas # 66 A 27"
  },
  {
    "city": "Bogotá",
    "state": "Bogotá D.C.",
    "latitude": 4.627818,
    "longitude": -74.121376,
    "name": "Virrey Solis IPS.S.A. Calle 98",
    "address": "KR 49 No 98 A 28"
  },
  {
    "city": "Bogotá",
    "state": "Bogotá D.C.",
    "latitude": 4.668985,
    "longitude": -74.056719,
    "name": "Clínica del Country IPS",
    "address": "Cra 16 # 82 57"
  },
  {
    "city": "Bogotá",
    "state": "Bogotá D.C.",
    "latitude": 4.629494,
    "longitude": -74.135626,
    "name": "Clínica del Occidente S.A.",
    "address": "AV de las Américas # 71 C 29"
  },
  {
    "city": "Bogotá",
    "state": "Bogotá D.C.",
    "latitude": 4.64985,
    "longitude": -74.081432,
    "name": "Clínica Federman",
    "address": "Calle 58 A # 37 10"
  },
  {
    "city": "Bogotá",
    "state": "Bogotá D.C.",
    "latitude": 4.631297,
    "longitude": -74.085459,
    "name": "Clínica Fundadores",
    "address": "KR 36 # 25 C 15"
  },
  {
    "city": "Bogotá",
    "state": "Bogotá D.C.",
    "latitude": 4.711908,
    "longitude": -74.032005,
    "name": "Clínica Universitaria El Bosque",
    "address": "AC 134 # 7 B 41"
  },
  {
    "city": "Bogotá",
    "state": "Bogotá D.C.",
    "latitude": 4.665436,
    "longitude": -74.077945,
    "name": "Hospital Infantil Universitario de San José",
    "address": "KR 52 # 67 A 71"
  },
  {
    "city": "Bogotá",
    "state": "Bogotá D.C.",
    "latitude": 4.635547,
    "longitude": -74.062298,
    "name": "Hospital Militar Central",
    "address": "TV 3 No49-00"
  },
  {
    "city": "Bogotá",
    "state": "Bogotá D.C.",
    "latitude": 4.623314,
    "longitude": -74.082648,
    "name": "Hospital Universitario Mayor-MEDERI",
    "address": "CL 24 # 29 45"
  },
  {
    "city": "Bogotá",
    "state": "Bogotá D.C.",
    "latitude": 4.66375,
    "longitude": -74.07998,
    "name": "Hospital Universitario Barrios Unidos-MEDERI",
    "address": "CL 66 A # 52 25"
  },
  {
    "city": "Bogotá",
    "state": "Bogotá D.C.",
    "latitude": 4.688768,
    "longitude": -74.062603,
    "name": "Clínica General de la 100 SAS",
    "address": "KR 53 # 100 50"
  },
  {
    "city": "Bogotá",
    "state": "Bogotá D.C.",
    "latitude": 4.620724,
    "longitude": -74.148188,
    "name": "Clínica Medical S.A.S.",
    "address": "Calle 36 Sur No 77 - 33"
  },
  {
    "city": "Bogotá",
    "state": "Bogotá D.C.",
    "latitude": 4.647219,
    "longitude": -74.097452,
    "name": "Hospital Central Policía Nacional",
    "address": "Cra. 59 No. 26 21 CAN"
  },
  {
    "city": "Bogotá",
    "state": "Bogotá D.C.",
    "latitude": 4.684796,
    "longitude": -74.056672,
    "name": "Clínica VIP Centro de Medicina Internacional",
    "address": "Calle 97#23-10"
  },
  {
    "city": "Bogotá",
    "state": "Bogotá D.C.",
    "latitude": 4.634122,
    "longitude": -74.112439,
    "name": "EPS Sanitas Unidad de Urgencias Puente Aranda",
    "address": "CL 14 NO. 62 - 04 Y CR 62 NO. 14 - 41"
  },
  {
    "city": "Bogotá",
    "state": "Bogotá D.C.",
    "latitude": 4.750154,
    "longitude": -74.065444,
    "name": "Clínica La Colina SAS",
    "address": "Calle 167 No 72-07"
  },
  {
    "city": "Bogotá",
    "state": "Bogotá D.C.",
    "latitude": 4.683027,
    "longitude": -74.057336,
    "name": "Clínica Los Nogales SAS",
    "address": "Calle 95 Nº 23-61"
  },
  {
    "city": "Bogotá",
    "state": "Bogotá D.C.",
    "latitude": 4.591466,
    "longitude": -74.092296,
    "name": "Unidad de Servicios de Salud Santa Clara",
    "address": "Carrera 14 B No. 1-45 SUR"
  },
  {
    "city": "Bogotá",
    "state": "Bogotá D.C.",
    "latitude": 4.57004,
    "longitude": -74.083095,
    "name": "Unidad de Servicios de Salud San Blas",
    "address": "Transversal 5 Este Número 19-50 Sur"
  },
  {
    "city": "Bogotá",
    "state": "Bogotá D.C.",
    "latitude": 4.545111,
    "longitude": -74.085064,
    "name": "Unidad de Servicios de Salud Altamira",
    "address": "Carrera 12 A Este Número 42-32 Sur"
  },
  {
    "city": "Bogotá",
    "state": "Bogotá D.C.",
    "latitude": 4.619484,
    "longitude": -74.065474,
    "name": "Unidad de Servicios de Salud Perseverancia",
    "address": "Carrera 5 Número 33 A-45"
  },
  {
    "city": "Bogotá",
    "state": "Bogotá D.C.",
    "latitude": 4.616893,
    "longitude": -74.081154,
    "name": "Unidad de Servicios de Salud Samper Mendoza",
    "address": "Carrera 23 Número 22 A -26"
  },
  {
    "city": "Bogotá",
    "state": "Bogotá D.C.",
    "latitude": 4.58984,
    "longitude": -74.0699,
    "name": "Unidad de Servicios de Salud Jorge Eliecer Gaitán",
    "address": "CL 6 Número 4 A 26 Eeste"
  },
  {
    "city": "Bogotá",
    "state": "Bogotá D.C.",
    "latitude": 4.545569,
    "longitude": -74.106523,
    "name": "Unidad de Servicios de Salud Diana Turbay",
    "address": "KR 1 F Número 48 X- 40 Sur"
  },
  {
    "city": "Bogotá",
    "state": "Bogotá D.C.",
    "latitude": 4.557427,
    "longitude": -74.111951,
    "name": "Unidad de Servicios de Salud Chircales",
    "address": "Transversal 5 L Bis Número 48 F- 69 Sur"
  },
  {
    "city": "Bogotá",
    "state": "Bogotá D.C.",
    "latitude": 4.584004,
    "longitude": -74.105465,
    "name": "Unidad de Servicios de Salud Olaya",
    "address": "Carrera 21 Número 22-51 Sur"
  },
  {
    "city": "Bogotá",
    "state": "Bogotá D.C.",
    "latitude": 4.553635,
    "longitude": -74.094211,
    "name": "Unidad de Servicios de Salud Victoria",
    "address": "Diagonal 39 Sur Número 3-20 Este"
  },
  {
    "city": "Bogotá",
    "state": "Bogotá D.C.",
    "latitude": 4.74219,
    "longitude": -74.022677,
    "name": "Unidad de Servicios de Salud Simón Bolívar",
    "address": "Calle 165 # 7 06"
  },
  {
    "city": "Bogotá",
    "state": "Bogotá D.C.",
    "latitude": 4.711406,
    "longitude": -74.109508,
    "name": "Unidad de Servicios de Salud Engativá Calle 80",
    "address": "Transversal 100 A # 80 A - 50"
  },
  {
    "city": "Bogotá",
    "state": "Bogotá D.C.",
    "latitude": 4.715223,
    "longitude": -74.140913,
    "name": "Unidad de Servicios de Salud EMAUS",
    "address": "Calle 64 C # 121 - 76"
  },
  {
    "city": "Bogotá",
    "state": "Bogotá D.C.",
    "latitude": 4.685614,
    "longitude": -74.086528,
    "name": "Unidad de Servicios de Salud Ferias",
    "address": "Calle 75 # 69 H - 08"
  },
  {
    "city": "Bogotá",
    "state": "Bogotá D.C.",
    "latitude": 4.753502,
    "longitude": -74.091873,
    "name": "Unidad de Servicios de Salud Centro de Servicios Especializados",
    "address": "KR 104 Nº 152C-50"
  },
  {
    "city": "Bogotá",
    "state": "Bogotá D.C.",
    "latitude": 4.741672,
    "longitude": -74.083346,
    "name": "Unidad de Servicios de Salud Suba",
    "address": "Carrera 92 Nº 147C-30"
  },
  {
    "city": "Bogotá",
    "state": "Bogotá D.C.",
    "latitude": 4.742517,
    "longitude": -74.107452,
    "name": "Unidad de Servicios de Salud Gaitana I",
    "address": "Transversal 116C No.133-18"
  },
  {
    "city": "Bogotá",
    "state": "Bogotá D.C.",
    "latitude": 4.653733,
    "longitude": -74.065505,
    "name": "Unidad de Servicios de Salud Chapinero",
    "address": "Calle 66 No 15-41"
  },
  {
    "city": "Bogotá",
    "state": "Bogotá D.C.",
    "latitude": 4.766077,
    "longitude": -74.039331,
    "name": "Unidad de Servicios de Salud Verbenal",
    "address": "CRA 18 A # 187-91"
  },
  {
    "city": "Bogotá",
    "state": "Bogotá D.C.",
    "latitude": 4.57153,
    "longitude": -74.12848,
    "name": "Unidad de Servicios de Salud El Tunal",
    "address": "CR 20 47B-35 Sur"
  },
  {
    "city": "Bogotá",
    "state": "Bogotá D.C.",
    "latitude": 4.559463,
    "longitude": -74.138292,
    "name": "Unidad de Servicios de Salud Meissen",
    "address": "KR 18 B No. 60 G - 36 Sur"
  },
  {
    "city": "Bogotá",
    "state": "Bogotá D.C.",
    "latitude": 4.592806,
    "longitude": -74.141501,
    "name": "Unidad de Servicios de Salud Venecia",
    "address": "AK 54 No. 47A - 08 Sur"
  },
  {
    "city": "Bogotá",
    "state": "Bogotá D.C.",
    "latitude": 4.583582,
    "longitude": -74.131945,
    "name": "Unidad de Servicios de Salud El Carmen - Materno Infantil",
    "address": "CL 48 B Sur No. 28 - 80"
  },
  {
    "city": "Bogotá",
    "state": "Bogotá D.C.",
    "latitude": 4.56279,
    "longitude": -74.125274,
    "name": "Unidad de Servicios de Salud Ambulatoria Tunjuelito",
    "address": "AV CaracasNo. 51 - 21 Sur"
  },
  {
    "city": "Bogotá",
    "state": "Bogotá D.C.",
    "latitude": 4.572706,
    "longitude": -74.157963,
    "name": "Unidad de Servicios de Salud Manuela Beltrán I",
    "address": "KR 45 C No. 69 - 21 Sur"
  },
  {
    "city": "Bogotá",
    "state": "Bogotá D.C.",
    "latitude": 4.599704,
    "longitude": -74.069643,
    "name": "Unidad de Servicios de Salud Candelaria I",
    "address": "KR 28 No. 63 A - 04 Sur"
  },
  {
    "city": "Bogotá",
    "state": "Bogotá D.C.",
    "latitude": 4.5526,
    "longitude": -74.144784,
    "name": "Unidad de Servicios de Salud Vista Hermosa",
    "address": "KR 18 C No. 66 A - 55 Sur"
  },
  {
    "city": "Bogotá",
    "state": "Bogotá D.C.",
    "latitude": 4.473218,
    "longitude": -74.121835,
    "name": "Unidad de Servicios de Salud Usme",
    "address": "KR 13 No. 135 A - 42 SUR"
  },
  {
    "city": "Bogotá",
    "state": "Bogotá D.C.",
    "latitude": 4.514642,
    "longitude": -74.113513,
    "name": "Unidad de Servicios de Salud Santa Librada I",
    "address": "KR 9 B No. 75 - 49 SUR"
  },
  {
    "city": "Bogotá",
    "state": "Bogotá D.C.",
    "latitude": 4.172256,
    "longitude": -74.147417,
    "name": "Unidad de Servicios de Salud Nazareth",
    "address": "Corregimiento de Nazareth de Sumapáz"
  },
  {
    "city": "Bogotá",
    "state": "Bogotá D.C.",
    "latitude": 4.616213,
    "longitude": -74.153377,
    "name": "Unidad de Servicios de Salud Occidente de Kennedy",
    "address": "TV 74 F # 40 B 54 SUR"
  },
  {
    "city": "Bogotá",
    "state": "Bogotá D.C.",
    "latitude": 4.651519,
    "longitude": -74.149004,
    "name": "Unidad de Servicios de Salud Patio Bonito Tintal",
    "address": "Calle 10 # 86 - 58"
  },
  {
    "city": "Bogotá",
    "state": "Bogotá D.C.",
    "latitude": 4.634054,
    "longitude": -74.160978,
    "name": "Unidad de Servicios de Salud 71 Patio Bonito",
    "address": "Diagonal 38 sur No. 82 - 30"
  },
  {
    "city": "Bogotá",
    "state": "Bogotá D.C.",
    "latitude": 4.622388,
    "longitude": -74.120532,
    "name": "Unidad de Servicios de Salud 17 Trinidad Galán",
    "address": "Carrera 60 No. 4 - 15"
  },
  {
    "city": "Bogotá",
    "state": "Bogotá D.C.",
    "latitude": 4.606871,
    "longitude": -74.185604,
    "name": "Unidad de Servicios de Salud Bosa",
    "address": "Calle 65D sur # 79C-90"
  },
  {
    "city": "Bogotá",
    "state": "Bogotá D.C.",
    "latitude": 4.678279,
    "longitude": -74.143903,
    "name": "Unidad de Servicios de Salud Fontibón",
    "address": "Carrera 99 No. 16i - 41"
  },
  {
    "city": "Bogotá",
    "state": "Bogotá D.C.",
    "latitude": 4.598856,
    "longitude": -74.191633,
    "name": "Unidad de Servicios de Salud Pablo VI Bosa",
    "address": "Calle 70 A sur No. 77 I - 26"
  },
  {
    "city": "Cartagena",
    "state": "Bolívar",
    "latitude": 10.420364,
    "longitude": -75.532862,
    "name": "Clínica Cartagena del Mar S.A.S",
    "address": "Pie de la Popa CL 30 # 20-71"
  },
  {
    "city": "Cartagena",
    "state": "Bolívar",
    "latitude": 10.42036,
    "longitude": -75.532793,
    "name": "Clínica Oftagmológica de Cartagena",
    "address": "Calle 30 No. 20 - 71"
  },
  {
    "city": "Cartagena",
    "state": "Bolívar",
    "latitude": 10.409211,
    "longitude": -75.517393,
    "name": "Centro Médico Crecer LTDA",
    "address": "Prado, AV. Pedro de Heredia No. 34-22"
  },
  {
    "city": "Cartagena",
    "state": "Bolívar",
    "latitude": 10.39179,
    "longitude": -75.486756,
    "name": "Sede No.1 Clínica Blas de Lezo S.A.",
    "address": "Transversal 54 No.40-129"
  },
  {
    "city": "Cartagena",
    "state": "Bolívar",
    "latitude": 10.40722,
    "longitude": -75.516218,
    "name": "Empresa Social del Estado Clínica Maternidad Rafael Calvo",
    "address": "Alcibia Sector María Auxiliadora"
  },
  {
    "city": "Cartagena",
    "state": "Bolívar",
    "latitude": 10.39326,
    "longitude": -75.477884,
    "name": "Salud Total EPS-S S.A UUBC Santa Lucía",
    "address": "Santa Lucía Sector Providencia No. 31-71-139"
  },
  {
    "city": "Cartagena",
    "state": "Bolívar",
    "latitude": 10.441158,
    "longitude": -75.524149,
    "name": "Hospital Ccanapote",
    "address": "Carrera 14 No. 62-3"
  },
  {
    "city": "Cartagena",
    "state": "Bolívar",
    "latitude": 10.391943,
    "longitude": -75.486905,
    "name": "Centro de Salud con camas Blas de Lezo",
    "address": "calle 25 No. 66-75"
  },
  {
    "city": "Cartagena",
    "state": "Bolívar",
    "latitude": 10.355027,
    "longitude": -75.492664,
    "name": "Hospital Arroz Barato",
    "address": "Kra.30 7-22"
  },
  {
    "city": "Cartagena",
    "state": "Bolívar",
    "latitude": 10.473476,
    "longitude": -75.496575,
    "name": "Centro de Salud con camas Boquilla",
    "address": "La Boquilla"
  },
  {
    "city": "Cartagena",
    "state": "Bolívar",
    "latitude": 10.405705,
    "longitude": -75.485025,
    "name": "Centro de Salud con camas Olaya Herrera",
    "address": "Carretera Principal Kra. 32 B No. 64-142"
  },
  {
    "city": "Cartagena",
    "state": "Bolívar",
    "latitude": 10.412934,
    "longitude": -75.457149,
    "name": "Hospital Pozón",
    "address": "Barrio Pozón"
  },
  {
    "city": "Cartagena",
    "state": "Bolívar",
    "latitude": 10.407381,
    "longitude": -75.517379,
    "name": "Hospital Infantil Napoleón Franco Pareja",
    "address": "Transversal 36 No 36-33"
  },
  {
    "city": "Cartagena",
    "state": "Bolívar",
    "latitude": 10.407756,
    "longitude": -75.516313,
    "name": "Gestion Salud",
    "address": "Sector María Auxiliadora, Cra 38 #29-18"
  },
  {
    "city": "Cartagena",
    "state": "Bolívar",
    "latitude": 10.379442,
    "longitude": -75.475527,
    "name": "Gestión Ssalud-San Fernando",
    "address": "Unidad Hospitalaria San Fernando Carrera 81 Calle 15"
  },
  {
    "city": "Cartagena",
    "state": "Bolívar",
    "latitude": 10.391036,
    "longitude": -75.474295,
    "name": "Clínica Odontológica Integral del Caribe LTDA",
    "address": "0"
  },
  {
    "city": "Cartagena",
    "state": "Bolívar",
    "latitude": 10.400387,
    "longitude": -75.503511,
    "name": "Empresa Social del Estado Hospital Universitario del Caribe",
    "address": "Calle 29 No 50-50"
  },
  {
    "city": "Cartagena",
    "state": "Bolívar",
    "latitude": 10.397438,
    "longitude": -75.48685,
    "name": "Clínica General del Caribe S.A.",
    "address": "Castellana TV 71B No. 31-64 Sector contadora"
  },
  {
    "city": "Cartagena",
    "state": "Bolívar",
    "latitude": 10.39578,
    "longitude": -75.555885,
    "name": "Promotora Bocagrande S.A Proboca S.A",
    "address": "Castillo Grande CL 5 KR 6 Y 7"
  },
  {
    "city": "Cartagena",
    "state": "Bolívar",
    "latitude": 10.432019,
    "longitude": -75.534931,
    "name": "Sociedad San José de Torices S.A",
    "address": "CRA 14 No. 43-66"
  },
  {
    "city": "Cartagena",
    "state": "Bolívar",
    "latitude": 10.393917,
    "longitude": -75.483918,
    "name": "Clínica San Felipe de Barajas - Pontezuela",
    "address": "Sector Pontezuela Km 16 Vía al mar No 1B"
  },
  {
    "city": "Cartagena",
    "state": "Bolívar",
    "latitude": 10.407603,
    "longitude": -75.513983,
    "name": "Clínica la Misericordia",
    "address": "calle 30 No. 41-26"
  },
  {
    "city": "Cartagena",
    "state": "Bolívar",
    "latitude": 10.395895,
    "longitude": -75.491582,
    "name": "Clínica Barú",
    "address": "Urbanización Los Ángeles, Calle 31 No 60A-14"
  },
  {
    "city": "Cartagena",
    "state": "Bolívar",
    "latitude": 10.388787,
    "longitude": -75.501746,
    "name": "Clínica El Bosque",
    "address": "Transversal 54 No. 30 - 111 Carretera el Bosque"
  },
  {
    "city": "Medellín",
    "state": "Antioquia",
    "latitude": 6.252303,
    "longitude": -75.563566,
    "name": "Fundación Instituto Neurológico de Colombia",
    "address": "Calle 55 No. 46-36"
  },
  {
    "city": "Medellín",
    "state": "Antioquia",
    "latitude": 6.262488,
    "longitude": -75.595281,
    "name": "Clínica Urgencias Pedátricas S.A. URPEDIAN",
    "address": "CALLE 49B No. 78A-40"
  },
  {
    "city": "Medellín",
    "state": "Antioquia",
    "latitude": 6.255526,
    "longitude": -75.556404,
    "name": "Clínica El Rosario Sede Centro",
    "address": "CRA 41 # 62-5"
  },
  {
    "city": "Medellín",
    "state": "Antioquia",
    "latitude": 6.193912,
    "longitude": -75.557311,
    "name": "Clínica El Rosario Sede El Tesoro",
    "address": "KR 20 # 2 Sur 185"
  },
  {
    "city": "Medellín",
    "state": "Antioquia",
    "latitude": 6.248694,
    "longitude": -75.564636,
    "name": "Sociedad Médica Antioquia S.A. SOMA",
    "address": "Calle 51 No. 45-93"
  },
  {
    "city": "Medellín",
    "state": "Antioquia",
    "latitude": 6.277141,
    "longitude": -75.580711,
    "name": "Hospital Pablo Tobón Uribe",
    "address": "Calle 78B Nº 69-240"
  },
  {
    "city": "Medellín",
    "state": "Antioquia",
    "latitude": 6.278937,
    "longitude": -75.58502,
    "name": "Clínica Cardio VID",
    "address": "Calle 78B Nº 75-21"
  },
  {
    "city": "Medellín",
    "state": "Antioquia",
    "latitude": 6.203289,
    "longitude": -75.576534,
    "name": "Inversiones Médicas de Antioquia S.A. Clínica Las Vegas",
    "address": "Calle 2 Sur No. 46-55"
  },
  {
    "city": "Medellín",
    "state": "Antioquia",
    "latitude": 6.257644,
    "longitude": -75.565426,
    "name": "Corporación para Estudios en Salud Clínica CES",
    "address": "CL 58 # 50 C- 2"
  },
  {
    "city": "Medellín",
    "state": "Antioquia",
    "latitude": 6.213842,
    "longitude": -75.593961,
    "name": "Clínica Las Américas",
    "address": "Diagonal 75B Nº 2A-80"
  },
  {
    "city": "Medellín",
    "state": "Antioquia",
    "latitude": 6.234411,
    "longitude": -75.572714,
    "name": "Hospital General de Medellín Luz Castro de Gutierrez, Empresa Social del Estado",
    "address": "Carrera 48 No. 32-102"
  },
  {
    "city": "Medellín",
    "state": "Antioquia",
    "latitude": 6.251279,
    "longitude": -75.563938,
    "name": "Clínica Medellín S.A",
    "address": "CL 53 # 46 - 38"
  },
  {
    "city": "Medellín",
    "state": "Antioquia",
    "latitude": 6.2067,
    "longitude": -75.571049,
    "name": "Clínica Medellín Poblado",
    "address": "Calle 7 Nº39-290"
  },
  {
    "city": "Medellín",
    "state": "Antioquia",
    "latitude": 6.232391,
    "longitude": -75.584373,
    "name": "Clínica Medellín Occidente",
    "address": "Kr 65B #30-95"
  },
  {
    "city": "Medellín",
    "state": "Antioquia",
    "latitude": 6.261476,
    "longitude": -75.564352,
    "name": "Fundación Hospitalaria San Vicente de Paul",
    "address": "Calle 64 con carrera 51 D"
  },
  {
    "city": "Medellín",
    "state": "Antioquia",
    "latitude": 6.22919,
    "longitude": -75.598349,
    "name": "Unidad Hospitalaria de Belen Hector Abad Gómez",
    "address": "CL 28 # 77-124"
  },
  {
    "city": "Medellín",
    "state": "Antioquia",
    "latitude": 6.261951,
    "longitude": -75.55336,
    "name": "Unidad Hospitalaria de Manrrique Hermenegildo de Fex",
    "address": "CL 66 E # 42 - 51"
  },
  {
    "city": "Medellín",
    "state": "Antioquia",
    "latitude": 6.307611,
    "longitude": -75.57482,
    "name": "Unidad Hospitalaria Doce de Octubre Luis Carlos Galán Sarmiento",
    "address": "CL 101 BB # 78 - 10"
  },
  {
    "city": "Medellín",
    "state": "Antioquia",
    "latitude": 6.294665,
    "longitude": -75.568836,
    "name": "Unidad Hospitalaria de Castilla Jaime Tobón Arbelaez",
    "address": "KR 65 # 98 - 105"
  },
  {
    "city": "Medellín",
    "state": "Antioquia",
    "latitude": 6.25445,
    "longitude": -75.620302,
    "name": "Unidad Prestadora de Servicios de Salud San Javier",
    "address": "CL 40 # 105 - 103"
  },
  {
    "city": "Medellín",
    "state": "Antioquia",
    "latitude": 6.278765,
    "longitude": -75.635893,
    "name": "Unidad Prestadora de Servicios de Salud San Cristobal",
    "address": "Calle 62D 133 15"
  },
  {
    "city": "Medellín",
    "state": "Antioquia",
    "latitude": 6.18554,
    "longitude": -75.656192,
    "name": "Unidad Prestadora de Servicios de Salud San Antonio de Prado Hospital Diego Echavarría Misas",
    "address": "Carrera 79 # 40 Sur 45"
  },
  {
    "city": "Medellín",
    "state": "Antioquia",
    "latitude": 6.295363,
    "longitude": -75.543394,
    "name": "Centro de Salud Santo Domingo",
    "address": "KR 33 # 107 - 15"
  },
  {
    "city": "Medellín",
    "state": "Antioquia",
    "latitude": 6.293477,
    "longitude": -75.560499,
    "name": "Unidad Hospitalaria Santa Cruz",
    "address": "KR 51 A # 100 - 80"
  },
  {
    "city": "Medellín",
    "state": "Antioquia",
    "latitude": 6.281083,
    "longitude": -75.613114,
    "name": "Unidad Hospitalaria Nuevo Occidente",
    "address": "KR 102 #63B -75"
  },
  {
    "city": "Medellín",
    "state": "Antioquia",
    "latitude": 6.190624,
    "longitude": -75.577782,
    "name": "Clínica Colsanitas S.A.",
    "address": "CL 16 Sur # 44-08"
  },
  {
    "city": "Medellín",
    "state": "Antioquia",
    "latitude": 6.276818,
    "longitude": -75.581974,
    "name": "Clínica Universitaria Universidad Pontificia Bolivariana",
    "address": "KR 72 A # 78 B 50"
  },
  {
    "city": "Medellín",
    "state": "Antioquia",
    "latitude": 6.278147,
    "longitude": -75.636222,
    "name": "Cooperativa de Salud San Esteban",
    "address": "KR 131 # 62 - 28"
  },
  {
    "city": "Medellín",
    "state": "Antioquia",
    "latitude": 6.273623,
    "longitude": -75.578223,
    "name": "IPS SURA Córdoba Medellín",
    "address": "TV 78 # 65-417"
  },
  {
    "city": "Medellín",
    "state": "Antioquia",
    "latitude": 6.22898,
    "longitude": -75.574324,
    "name": "IPS SURA Industriales Medellín",
    "address": "KR 48 # 26 - 50"
  },
  {
    "city": "Medellín",
    "state": "Antioquia",
    "latitude": 6.233105,
    "longitude": -75.604897,
    "name": "IPS SURA Los Molinos Medellín",
    "address": "KR 30A # 82 A - 26 LC 21 - 77 - 9139"
  },
  {
    "city": "Medellín",
    "state": "Antioquia",
    "latitude": 6.203292,
    "longitude": -75.576535,
    "name": "IPS SURA Las Vegas Medellín",
    "address": "CL 2 Sur # 46-55"
  },
  {
    "city": "Medellín",
    "state": "Antioquia",
    "latitude": 6.25593,
    "longitude": -75.563255,
    "name": "Clínica ESIMED Juan Luis Londoño",
    "address": "KR 49 # 58 - 19"
  },
  {
    "city": "Medellín",
    "state": "Antioquia",
    "latitude": 6.25593,
    "longitude": -75.563252,
    "name": "Clínica ESIMED de la 80",
    "address": "KR 80 # 18 A 140"
  },
  {
    "city": "Medellín",
    "state": "Antioquia",
    "latitude": 6.222662,
    "longitude": -75.574784,
    "name": "Clínica del Prado Ciudad del Río",
    "address": "CL 19 A # 44-25"
  },
  {
    "city": "Medellín",
    "state": "Antioquia",
    "latitude": 6.276176,
    "longitude": -75.573694,
    "name": "Cooperativa de Trabajo Asociado de Profesionales de la  Salud",
    "address": "Carrera 65 Nº 78-73"
  },
  {
    "city": "Medellín",
    "state": "Antioquia",
    "latitude": 6.240919,
    "longitude": -75.579028,
    "name": "Clínica Vida Sede Hospitalaria",
    "address": "Carera 50 A No. 64-42"
  },
  {
    "city": "Medellín",
    "state": "Antioquia",
    "latitude": 6.266867,
    "longitude": -75.565176,
    "name": "IPS Universitaria Sede Clínica León XIII",
    "address": "KR 51 B # 69-13"
  },
  {
    "city": "Medellín",
    "state": "Antioquia",
    "latitude": 6.286399,
    "longitude": -75.574247,
    "name": "Hospital La María E.S.E.",
    "address": "CL 92EE # 67-61"
  },
  {
    "city": "Medellín",
    "state": "Antioquia",
    "latitude": 6.242739,
    "longitude": -75.557439,
    "name": "Clínica Sagrado Corazón S.A.S",
    "address": "CL 49 # 35 - 61"
  },
  {
    "city": "Medellín",
    "state": "Antioquia",
    "latitude": 6.267834,
    "longitude": -75.558679,
    "name": "Hospital Infantil Concejo de Medelln",
    "address": "CL 72A # 48A-20"
  },
  {
    "city": "Medellín",
    "state": "Antioquia",
    "latitude": 4.62781,
    "longitude": -74.121383,
    "name": "Virrey Solis I.P.S S.A San Diego",
    "address": "Carrera 43 A # 31-157/183"
  },
  {
    "city": "Villavicencio",
    "state": "Meta",
    "latitude": 4.142243,
    "longitude": -73.640318,
    "name": "Servimédicos S.A.",
    "address": "Calle 32 No. 40A-40"
  },
  {
    "city": "Villavicencio",
    "state": "Meta",
    "latitude": 4.144128,
    "longitude": -73.636714,
    "name": "Clínica del Meta S.A.",
    "address": "Calle 33 NO. 36-50"
  },
  {
    "city": "Villavicencio",
    "state": "Meta",
    "latitude": 4.146943,
    "longitude": -73.639118,
    "name": "Clínica Martha S.A.",
    "address": "Cra 36 NO. 35 - 09"
  },
  {
    "city": "Villavicencio",
    "state": "Meta",
    "latitude": 4.144852,
    "longitude": -73.64386,
    "name": "Hospital Departamental de Villavicencio ESE",
    "address": "Calle 37 N.28-53"
  },
  {
    "city": "Villavicencio",
    "state": "Meta",
    "latitude": 4.082264,
    "longitude": -73.670489,
    "name": "Centro de Salud Porfía",
    "address": "Calle 54 Nº 44 - 03"
  },
  {
    "city": "Villavicencio",
    "state": "Meta",
    "latitude": 4.143241,
    "longitude": -73.611161,
    "name": "Centro de Salud Recreo",
    "address": "CALLE 31 CRA11 No 0"
  },
  {
    "city": "Villavicencio",
    "state": "Meta",
    "latitude": 4.130918,
    "longitude": -73.637576,
    "name": "Centro de Salud Esperanza",
    "address": "Carrera 12 Nº 47B - 03"
  },
  {
    "city": "Villavicencio",
    "state": "Meta",
    "latitude": 4.148199,
    "longitude": -73.639257,
    "name": "Corporación Clínica Universidad Cooperativa de Colombia - Clínica UCC",
    "address": "CL 36 35-62"
  },
  {
    "city": "Villavicencio",
    "state": "Meta",
    "latitude": 4.137235,
    "longitude": -73.637517,
    "name": "Clinica Esimed Llanos",
    "address": "Calle 24 No 39-48"
  },
  {
    "city": "Santa Marta",
    "state": "Santa Marta",
    "latitude": 11.249833,
    "longitude": -74.207000,
    "name": "ESE - CLINICA LA CASTELLANA - 819004070",
    "address": "Carrera 8 Calle 7"
  },
  {
    "city": "Santa Marta",
    "state": "Santa Marta",
    "latitude": 11.238556,
    "longitude": -74.202528,
    "name": "CLINICA LA MILAGROSA S.A - 800067515",
    "address": "Cl. 22 #13A - 09"
  },
  {
    "city": "Santa Marta",
    "state": "Santa Marta",
    "latitude": 11.236917,
    "longitude": -74.194722,
    "name": "COMPAÑÍA COLOMBIANA DE SALUD COLSALUD S.A - 819002176",
    "address": "Cra. 19a #23-3"
  },
  {
    "city": "Santa Marta",
    "state": "Santa Marta",
    "latitude": 11.237056,
    "longitude": -74.210778,
    "name": "SOCIEDAD MEDICA DE Santa Marta LTDA. CLINICA EL PRADO - 891701664",
    "address": "Calle 25 No 4- 151"
  },
  {
    "city": "Santa Marta",
    "state": "Santa Marta",
    "latitude": 11.237278,
    "longitude": -74.201833,
    "name": "HOSPITAL UNIVERSITARIO FERNANDO TROCONIS - 891780185",
    "address": "Cra. 14 # 23-42"
  },
  {
    "city": "Santa Marta",
    "state": "Santa Marta",
    "latitude": 11.236194,
    "longitude": -74.212639,
    "name": "FUNDACION CARDIOVASCULAR DE COLOMBIA - INSTITUTO DEL CORAZÓN Santa Marta - 890212568",
    "address": "Cra. 3 #26-40"
  },
  {
    "city": "Santa Marta",
    "state": "Santa Marta",
    "latitude": 11.237222,
    "longitude": -74.201056,
    "name": "CLINICA BENEDICTO S.A - 900099151",
    "address": "Cl. 23 #14-46"
  },
  {
    "city": "Santa Marta",
    "state": "Santa Marta",
    "latitude": 11.239722,
    "longitude": -74.191694,
    "name": "PERFECT BODY MEDICAL CENTER - 900223667",
    "address": "Carrera 20 # 15-110, Barrio Jardín"
  },
  {
    "city": "Santa Marta",
    "state": "Santa Marta",
    "latitude": 11.232889,
    "longitude": -74.194889,
    "name": "CLINICA BAHIA - 900267064",
    "address": "Carrera 19 # 28C-25"
  },
  {
    "city": "Santa Marta",
    "state": "Santa Marta",
    "latitude": 11.237750,
    "longitude": -74.200556,
    "name": "CENTROS HOSPITALARIOS DEL CARIBE S.A.S. - 900520510",
    "address": "Cl. 22 #15132"
  },
  {
    "city": "Santa Marta",
    "state": "Santa Marta",
    "latitude": 11.238028,
    "longitude": -74.186806,
    "name": "CLINICA DE FRACTURAS TAYRONA IPS SAS - 900553752",
    "address": "Cra. 24 #18 - 09"
  },
  {
    "city": "Santa Marta",
    "state": "Santa Marta",
    "latitude": 11.241222,
    "longitude": -74.185528,
    "name": "CLINICA ESIMED Santa Marta - 800215908",
    "address": "Calle 11d #24-74"
  },






  {
    "city": "Barranquilla",
    "state": "Soledad",
    "latitude": 10.9952207,
    "longitude": -74.8056843,
    "name": "ORGANIZACIÓN CLINICA GENERAL DEL NORTE S.A",
    "address": "CARRERA 48 # 70-38"
  },
  {
    "city": "Barranquilla",
    "state": "Soledad",
    "latitude": 10.9741274,
    "longitude": -74.801092,
    "name": "UNIDAD DE ATENCION AMBULATORIA LOS ANDES",
    "address": "CALLE 57 Nº 25-105"
  },
  {
    "city": "Barranquilla",
    "state": "Soledad",
    "latitude": 10.9941283,
    "longitude": -74.7950523,
    "name": "CLINICA JALLER S.A.S.",
    "address": "Calle 61 50-124"
  },
  {
    "city": "Barranquilla",
    "state": "Soledad",
    "latitude": 11.0075763,
    "longitude": -74.8214211,
    "name": "CLINICA DE FRACTURAS CENTRO DE ORTOPEDIA Y TRAUMATOLOGIA S.A",
    "address": "KRA 51B # 86 - 48"
  },
  {
    "city": "Barranquilla",
    "state": "Soledad",
    "latitude": 11.00197,
    "longitude": -74.8155687,
    "name": "IPS CLINICA DE LA COSTA LTDA",
    "address": "CARRERA 50 # 80-90"
  },
  {
    "city": "Barranquilla",
    "state": "Soledad",
    "latitude": 10.946905,
    "longitude": -74.8238637,
    "name": "IPS CLINICA SAN IGNACIO LTDA",
    "address": "CALLE 76 # 6B-36"
  },
  {
    "city": "Barranquilla",
    "state": "Soledad",
    "latitude": 11.0036914,
    "longitude": -74.820363,
    "name": "CLINICA MEDIESP S.A.S",
    "address": "CRA 49C 84 - 141"
  },
  {
    "city": "Barranquilla",
    "state": "Soledad",
    "latitude": 11.0026936,
    "longitude": -74.8168587,
    "name": "ORGANIZACION CLINICA BONNADONA PREVENIR S.A.S.",
    "address": "CARRERA 49 C NO 82-70"
  },
  {
    "city": "Barranquilla",
    "state": "Soledad",
    "latitude": 11.0017618,
    "longitude": -74.8151237,
    "name": "IPS SURA URGENCIAS ALTOS DEL PRADO",
    "address": "CARRERA 49C #80-176"
  },
  {
    "city": "Barranquilla",
    "state": "Soledad",
    "latitude": 10.9837683,
    "longitude": -74.8017207,
    "name": "IPS SERVICIOS MEDICOS INTEGRALES DEL NORTE \"SEMIN\"",
    "address": "CARRERA 38 No 63B-09"
  },
  {
    "city": "Barranquilla",
    "state": "Soledad",
    "latitude": 11.0013717,
    "longitude": -74.8165804,
    "name": "CLINICA REINA CATALINA S.A.S.",
    "address": "CALLE 82 No 47-12"
  },
  {
    "city": "Barranquilla",
    "state": "Soledad",
    "latitude": 10.9895676,
    "longitude": -74.8074676,
    "name": "CLINICA LA ASUNCION",
    "address": "CALLE 70B # 41-93"
  },
  {
    "city": "Barranquilla",
    "state": "Soledad",
    "latitude": 10.9927908,
    "longitude": -74.8123089,
    "name": "FUNDACION HOSPITAL UNIVERSITARIO METROPOLITANO",
    "address": "CARRERA 42F No.75B-18"
  },
  {
    "city": "Barranquilla",
    "state": "Soledad",
    "latitude": 11.0010527,
    "longitude": -74.8131194,
    "name": "CLINICAS ATENAS LTDA IPS",
    "address": "CALLE 80 No 49 C-10"
  },
  {
    "city": "Barranquilla",
    "state": "Soledad",
    "latitude": 10.983597,
    "longitude": -74.7982703,
    "name": "KATZWEINGORT Y CIA LTDA CLINICA LA MERCED",
    "address": "CALLE 60 No 38-29"
  },
  {
    "city": "Barranquilla",
    "state": "Soledad",
    "latitude": 10.9918122,
    "longitude": -74.7939542,
    "name": "FUNDACION MEDICO PREVENTIVA PARA EL BIENESTAR SOCIAL S.A. CLINICA EL PRADO",
    "address": "CALLE 59 No 50-10"
  },
  {
    "city": "Barranquilla",
    "state": "Soledad",
    "latitude": 10.9732052,
    "longitude": -74.7813737,
    "name": "IPS HEROSAN S.A.S.- CLINICA SAN JOAQUIN",
    "address": "CALLE 34 No 33-55"
  },
  {
    "city": "Barranquilla",
    "state": "Soledad",
    "latitude": 11.0186891,
    "longitude": -74.8057144,
    "name": "EMPRESA SOCIAL DEL ESTADO HOSPITAL NIÑO JESUS DE Barranquilla",
    "address": "CARRERA 75 No.79B-50"
  },
  {
    "city": "Barranquilla",
    "state": "Soledad",
    "latitude": 11.00485,
    "longitude": -74.8237587,
    "name": "CLINICA ALTOS DE SAN VICENTE LTDA",
    "address": "CARRERA 49C No. 86-46"
  },
  {
    "city": "Barranquilla",
    "state": "Soledad",
    "latitude": 10.9997703,
    "longitude": -74.8127564,
    "name": "CLINICA ESIMED JULIO ENRIQUE",
    "address": "CRA 49 B No 79-138"
  },
  {
    "city": "Barranquilla",
    "state": "Soledad",
    "latitude": 10.9608345,
    "longitude": -74.7994527,
    "name": "CENTRAL DE ESPECIALISTAS Y URGENCIAS Barranquilla SUR ESIMED",
    "address": "CALLE 47 No 18-70"
  },
  {
    "city": "Barranquilla",
    "state": "Soledad",
    "latitude": 11.001477,
    "longitude": -74.8165777,
    "name": "SALUD TOTAL EPS - S S.A UUBC REINA CATALINA",
    "address": "CARRERA 47 No.80-266"
  },
  {
    "city": "Barranquilla",
    "state": "Soledad",
    "latitude": 10.9560159,
    "longitude": -74.8068018,
    "name": "SALUD TOTAL EPS - S S.A UUBC CORDIALIDAD",
    "address": "CALLE 56 # 10B - 140"
  },
  {
    "city": "Barranquilla",
    "state": "Soledad",
    "latitude": 11.0016356,
    "longitude": -74.8153865,
    "name": "IPS CLINICA DEL CARIBE",
    "address": "CALLE 80 No 49 C-65"
  },
  {
    "city": "Barranquilla",
    "state": "Soledad",
    "latitude": 10.9527907,
    "longitude": -74.7897935,
    "name": "FUNDACION CAMPBELL",
    "address": "CALLE 31 No.14- 82"
  },
  {
    "city": "Barranquilla",
    "state": "Soledad",
    "latitude": 10.9607719,
    "longitude": -74.7962829,
    "name": "CLINICA MURILLO - INVERCLINICAS S.A.",
    "address": "CLL 45 # 20 - 77"
  },
  {
    "city": "Barranquilla",
    "state": "Soledad",
    "latitude": 10.9762561,
    "longitude": -74.8085253,
    "name": "Vidacoop Alta Complejidad IPS",
    "address": "Calle 65 No 26 D 35"
  },
  {
    "city": "Barranquilla",
    "state": "Soledad",
    "latitude": 11.00075,
    "longitude": -74.8169987,
    "name": "INSTITUTO DE NEUROCIENCIAS CLINICA DEL SOL LIMITADA",
    "address": "CARRERA 47 NO.80-150"
  },
  {
    "city": "Barranquilla",
    "state": "Soledad",
    "latitude": 10.9925492,
    "longitude": -74.8101813,
    "name": "CLINICA SAN MARTIN Barranquilla LTDA",
    "address": "CARRERA 43 70-106"
  },
  {
    "city": "Barranquilla",
    "state": "Soledad",
    "latitude": 10.9550325,
    "longitude": -74.7981111,
    "name": "CLINICA LA VICTORIA S.A.S.",
    "address": "CALLE 45 No.14-98"
  },
  {
    "city": "Barranquilla",
    "state": "Soledad",
    "latitude": 11.0034104,
    "longitude": -74.8188886,
    "name": "UNIDAD DE URGENCIAS BAJA COMPLEJIDAD ALTO PRADO",
    "address": "CR 50 No 82 - 168"
  },
  {
    "city": "Barranquilla",
    "state": "Soledad",
    "latitude": 11.005568,
    "longitude": -74.8225884,
    "name": "CINICA IBEROAMERICA",
    "address": "CL 86 No 50 - 26"
  },
  {
    "city": "Barranquilla",
    "state": "Soledad",
    "latitude": 11.0140314,
    "longitude": -74.7977465,
    "name": "CLÍNICA MISERICORDIA",
    "address": "CR 74 No. 76-91"
  },
  {
    "city": "Barranquilla",
    "state": "Soledad",
    "latitude": 10.9913148,
    "longitude": -74.8081658,
    "name": "CENTRO HOSPITALARIO REGIONAL SANTA MONICA SAS",
    "address": "CR 43 No 70-144"
  },
  {
    "city": "Barranquilla",
    "state": "Soledad",
    "latitude": 10.9746474,
    "longitude": -74.7819336,
    "name": "MIRED Barranquilla HOSPITAL GENERAL DE Barranquilla",
    "address": "CALLE 33 No.33-09"
  },
  {
    "city": "Barranquilla",
    "state": "Soledad",
    "latitude": 10.9702171,
    "longitude": -74.8237586,
    "name": "MIRED Barranquilla CAMINO LA MANGA",
    "address": "CARRERA 21D No.78-55"
  },
  {
    "city": "Barranquilla",
    "state": "Soledad",
    "latitude": 10.960692,
    "longitude": -74.8040068,
    "name": "MIRED Barranquilla HOSPITAL NAZARETH",
    "address": "CARRERA 16 No.47B-06"
  },
  {
    "city": "Barranquilla",
    "state": "Soledad",
    "latitude": 10.9489852,
    "longitude": -74.8003259,
    "name": "MIRED Barranquilla CAMINO MURILLO",
    "address": "CALLE 45 No.8H-48"
  },
  {
    "city": "Barranquilla",
    "state": "Soledad",
    "latitude": 10.9307187,
    "longitude": -74.82134,
    "name": "MIRED Barranquilla CAMINO METROPOLITANO",
    "address": "CALLE 78 CARRERA 2 SUR"
  },
  {
    "city": "Barranquilla",
    "state": "Soledad",
    "latitude": 10.9437836,
    "longitude": -74.7794314,
    "name": "MIRED Barranquilla CAMINO SIMON BOLIVAR",
    "address": "CALLE 23 No.5-50"
  },
  {
    "city": "Barranquilla",
    "state": "Soledad",
    "latitude": 10.956734,
    "longitude": -74.8194762,
    "name": "MIRED Barranquilla CAMINO BOSQUE DE MARIA",
    "address": "CALLE 64 No.9D-66"
  },






  {
    "city": "Cartagena",
    "state": "Cartagena",
    "latitude": -75.397298,
    "longitude": 10.534879,
    "name": "CAP Bayunca",
    "address": "Bayunca Calle San Antonio"
  },
  {
    "city": "Cartagena",
    "state": "Cartagena",
    "latitude": -75.485802,
    "longitude": 10.387333,
    "name": "CAP Blas de Lezo",
    "address": "Blas de Lezo calle 25 No. 66-75"
  },
  {
    "city": "Cartagena",
    "state": "Cartagena",
    "latitude": -75.494747,
    "longitude": 10.475871,
    "name": "CAP Boquilla",
    "address": "La Boquilla"
  },
  {
    "city": "Cartagena",
    "state": "Cartagena",
    "latitude": -75.518176,
    "longitude": 10.411895,
    "name": "CAP Candelaria",
    "address": "La Candelaria Av.Pedro Romero sec.Alcibia cll.31 33-111"
  },
  {
    "city": "Cartagena",
    "state": "Cartagena",
    "latitude": -75.519713,
    "longitude": 10.415898,
    "name": "CAP La Esperanza",
    "address": "Ave. Principal Plaza Navidad No.29-130"
  },
  {
    "city": "Cartagena",
    "state": "Cartagena",
    "latitude": -75.505299,
    "longitude": 10.389303,
    "name": "CAP nuevo Bosque",
    "address": "Nuevo Bosque 3a"
  },
  {
    "city": "Cartagena",
    "state": "Cartagena",
    "latitude": -75.485060,
    "longitude": 10.405796,
    "name": "CAP Olaya Herrera",
    "address": "Olaya Herrera Carretera Principal Kra. 32 B No. 64-142"
  },
  {
    "city": "Cartagena",
    "state": "Cartagena",
    "latitude": -75.519257,
    "longitude": 10.285579,
    "name": "CAP Pasacaballo",
    "address": "Pasacaballlo"
  },
  {
    "city": "Cartagena",
    "state": "Cartagena",
    "latitude": -75.542295,
    "longitude": 10.432240,
    "name": "CEMIC Salud Mental",
    "address": "El Cabrero Calle Real  No 42-62 - TORICES CALLE 42 No. 16-30"
  },
  {
    "city": "Cartagena",
    "state": "Cartagena",
    "latitude": -75.262248,
    "longitude": 10.789369,
    "name": "CENTRO DE SALUD DE GALERAZAMBA",
    "address": "TELÉFONOS 3005233620"
  },
  {
    "city": "Cartagena",
    "state": "Cartagena",
    "latitude": -75.264912,
    "longitude": 10.731944,
    "name": "CENTRO DE SALUD DE LOMA DE ARENA",
    "address": "TELÉFONOS 3005233620"
  },
  {
    "city": "Cartagena",
    "state": "Cartagena",
    "latitude": -75.576495,
    "longitude": 10.327850,
    "name": "CS BOCACHICA",
    "address": "ISLA DE BOCACHICA"
  },
  {
    "city": "Cartagena",
    "state": "Cartagena",
    "latitude": -75.263349,
    "longitude": 10.737721,
    "name": "CS LA",
    "address": "CENTRO DE SALUD DE LOMA DE ARENA"
  },
  {
    "city": "Cartagena",
    "state": "Cartagena",
    "latitude": -75.491588,
    "longitude": 10.395929,
    "name": "C. Baru",
    "address": "URBANIZACION LOS ANGELES"
  },
  {
    "city": "Cartagena",
    "state": "Cartagena",
    "latitude": -75.486910,
    "longitude": 10.391914,
    "name": "C. Blas de Lezo",
    "address": "TV 54 No. 47-57 CT. BOSQUE"
  },
  {
    "city": "Cartagena",
    "state": "Cartagena",
    "latitude": -75.494616,
    "longitude": 10.389865,
    "name": "C. Blas de Lezo Urgencias",
    "address": "Transversal 54 No.40-129 CT Bosque"
  },
  {
    "city": "Cartagena",
    "state": "Cartagena",
    "latitude": -75.530084,
    "longitude": 10.418373,
    "name": "C. Comfamiliar",
    "address": "Pie de la Popa CLL 30 Nº 21-183"
  },
  {
    "city": "Cartagena",
    "state": "Cartagena",
    "latitude": -75.517285,
    "longitude": 10.409423,
    "name": "C. CRECER",
    "address": "PRADO"
  },
  {
    "city": "Cartagena",
    "state": "Cartagena",
    "latitude": -75.475037,
    "longitude": 10.392580,
    "name": "C.C JESUS DE NA",
    "address": "CLÍNICA CARDIOVASCULAR JESUS DE NAZARETH TRANSFORMACIÓN EN SAS"
  },
  {
    "city": "Cartagena",
    "state": "Cartagena",
    "latitude": -75.532977,
    "longitude": 10.420361,
    "name": "C. del Mar",
    "address": "Pie de la Popa  CL 30 # 20-71"
  },
  {
    "city": "Cartagena",
    "state": "Cartagena",
    "latitude": -75.500982,
    "longitude": 10.388821,
    "name": "C. El Bosque",
    "address": "Transversal 54 No. 30 - 111 Carretera el Bosque"
  },
  {
    "city": "Cartagena",
    "state": "Cartagena",
    "latitude": -75.514853,
    "longitude": 10.406579,
    "name": "C.Higea / UCIGEA",
    "address": "Amberes CRA 41 # 27- 92 PRIMER CALLEJON"
  },
  {
    "city": "Cartagena",
    "state": "Cartagena",
    "latitude": -75.513880,
    "longitude": 10.407612,
    "name": "C. La Misericordia",
    "address": "Amberes calle 30 No. 41-26"
  },
  {
    "city": "Cartagena",
    "state": "Cartagena",
    "latitude": -75.517252,
    "longitude": 10.410064,
    "name": "C. LA MUJER",
    "address": "AV. PEDRO DE HEREDIA No. 35-119"
  },
  {
    "city": "Cartagena",
    "state": "Cartagena",
    "latitude": -75.477061,
    "longitude": 10.394065,
    "name": "C. M Bernarda",
    "address": "La Providencia KR 71 Nº 31-395"
  },
  {
    "city": "Cartagena",
    "state": "Cartagena",
    "latitude": -75.479012,
    "longitude": 10.391787,
    "name": "C. N S. del Rosario",
    "address": "PROVIDENCIA CRA 71 No. 31-85"
  },
  {
    "city": "Cartagena",
    "state": "Cartagena",
    "latitude": -75.446755,
    "longitude": 10.554042,
    "name": "C. SAN FELIPE DE BARAJAS - PONTEZUELA",
    "address": "SECTOR PONTEZUELA Km 16 VIA AL MAR No 1B"
  },
  {
    "city": "Cartagena",
    "state": "Cartagena",
    "latitude": -75.535003,
    "longitude": 10.432283,
    "name": "C. San Jose de Torices",
    "address": "Torices CRA 14 No. 43-66"
  },
  {
    "city": "Cartagena",
    "state": "Cartagena",
    "latitude": -75.553155,
    "longitude": 10.404438,
    "name": "C. Sta Cruz de B/grande / UCI del Caribe",
    "address": "Bocagrande Cra: 3 No 8-177"
  },
  {
    "city": "Cartagena",
    "state": "Cartagena",
    "latitude": -75.439588,
    "longitude": 10.283873,
    "name": "EHLL TURBANA",
    "address": "ENTRADA PRINCUPAL"
  },
  {
    "city": "Cartagena",
    "state": "Cartagena",
    "latitude": -75.516245,
    "longitude": 10.407454,
    "name": "ESE C. M. Rafael .C",
    "address": "ALCIBIA SECTOR MARIA AUXILIADORA"
  },
  {
    "city": "Cartagena",
    "state": "Cartagena",
    "latitude": -75.414344,
    "longitude": 10.336985,
    "name": "ESE HOSPITAL LOCAl TURBACO",
    "address": "CARRETERA TRONCAL DEL OCCIDENTE DIAGONAL A LA BOMBA ESSO"
  },
  {
    "city": "Cartagena",
    "state": "Cartagena",
    "latitude": -75.289013,
    "longitude": 10.604037,
    "name": "ESE HOSP L DE SANTA CATALINA DE ALEJANDRIA",
    "address": "BARRIO ABAJO"
  },
  {
    "city": "Cartagena",
    "state": "Cartagena",
    "latitude": -75.376559,
    "longitude": 10.439664,
    "name": "ESE HOSP L SANTA ROSA DE LIMA",
    "address": "BARRIO REDENTOR AVENIDA PRINCIPAL"
  },
  {
    "city": "Cartagena",
    "state": "Cartagena",
    "latitude": -75.503366,
    "longitude": 10.400955,
    "name": "ESE H. U del Caribe",
    "address": "Zarragocilla calle 29 No 50-50"
  },
  {
    "city": "Cartagena",
    "state": "Cartagena",
    "latitude": -75.505490,
    "longitude": 10.405414,
    "name": "Estrios SAS",
    "address": "Zarragocilla Diagonal 30 # 30b-41"
  },
  {
    "city": "Cartagena",
    "state": "Cartagena",
    "latitude": -75.469661,
    "longitude": 10.387780,
    "name": "FIRE",
    "address": "CLL 1a EL EDEN DG 32 No. 82-40"
  },
  {
    "city": "Cartagena",
    "state": "Cartagena",
    "latitude": -75.556967,
    "longitude": 10.240547,
    "name": "F. M. S. DOMINGO / C. J. M. SANTO DOMINGO",
    "address": "Isla Barú Santa Ana Calle Larga"
  },
  {
    "city": "Cartagena",
    "state": "Cartagena",
    "latitude": -75.5174720,
    "longitude": 10.4074578,
    "name": "F. UCI  Doña Pilar",
    "address": "BRUSELAS TRV 36 # 36-33"
  },
  {
    "city": "Cartagena",
    "state": "Cartagena",
    "latitude": -75.516562,
    "longitude": 10.406379,
    "name": "Gestión Salud 1",
    "address": "sector María Auxiliadora"
  },
  {
    "city": "Cartagena",
    "state": "Cartagena",
    "latitude": -75.516273,
    "longitude": 10.407789,
    "name": "Gestión Salud 2 MA",
    "address": "Cra. 29 No 38-20"
  },
  {
    "city": "Cartagena",
    "state": "Cartagena",
    "latitude": -75.492603,
    "longitude": 10.355162,
    "name": "Hospital  Arroz Barato",
    "address": "Arroz Barato Kra.30 7-22 Puerta de Hierro"
  },
  {
    "city": "Cartagena",
    "state": "Cartagena",
    "latitude": -75.524672,
    "longitude": 10.441309,
    "name": "Hospital de Canapote",
    "address": "Canapote carrera 14 No. 62-3"
  },
  {
    "city": "Cartagena",
    "state": "Cartagena",
    "latitude": -75.457221,
    "longitude": 10.412436,
    "name": "Hospital  Pozón",
    "address": "Pozón Carrera 86"
  },
  {
    "city": "Cartagena",
    "state": "Cartagena",
    "latitude": -75.517147,
    "longitude": 10.407472,
    "name": "H. Infantil",
    "address": "Transversal 36 No 36-33"
  },
  {
    "city": "Cartagena",
    "state": "Cartagena",
    "latitude": -75.550840,
    "longitude": 10.415950,
    "name": "H. Naval de Cartagena",
    "address": "Bocagrande avenida San Martin"
  },
  {
    "city": "Cartagena",
    "state": "Cartagena",
    "latitude": -76.181104,
    "longitude": 9.3868373,
    "name": "IPS DEMANSALUD",
    "address": "ISLA FUERTE"
  },
  {
    "city": "Cartagena",
    "state": "Cartagena",
    "latitude": -75.556332,
    "longitude": 10.397287,
    "name": "Medihelp",
    "address": "Bocagrande  KR 6a Nº 5-101"
  },
  {
    "city": "Cartagena",
    "state": "Cartagena",
    "latitude": -75.556093,
    "longitude": 10.395485,
    "name": "N.H Bocagrande",
    "address": ""
  },
  {
    "city": "Cartagena",
    "state": "Cartagena",
    "latitude": -75.448797,
    "longitude": 10.609829,
    "name": "PS ARROYO DE PIEDRA",
    "address": "ARROYO DE PIEDRA"
  },
  {
    "city": "Cartagena",
    "state": "Cartagena",
    "latitude": -75.347904,
    "longitude": 10.656505,
    "name": "PS ARROYO GRANDE.",
    "address": "ARROYO GRANDE."
  },
  {
    "city": "Cartagena",
    "state": "Cartagena",
    "latitude": -75.545184,
    "longitude": 10.342165,
    "name": "PS CAÑO DEL ORO",
    "address": "ISLA CAÑO DEL ORO"
  },
  {
    "city": "Cartagena",
    "state": "Cartagena",
    "latitude": -75.853567,
    "longitude": 9.791177,
    "name": "PS ISLOTE SAN BERNARDO",
    "address": "El Islote San Bernardo"
  },
  {
    "city": "Cartagena",
    "state": "Cartagena",
    "latitude": -75.498609,
    "longitude": 10.514650,
    "name": "PS MANZANILLO",
    "address": "MANZANILLO DEL MAR"
  },
  {
    "city": "Cartagena",
    "state": "Cartagena",
    "latitude": -75.551420,
    "longitude": 10.365425,
    "name": "PS PUNTA ARENA",
    "address": "ISLA PUNTA ARENA"
  },
  {
    "city": "Cartagena",
    "state": "Cartagena",
    "latitude": -75.500945,
    "longitude": 10.557315,
    "name": "PS PUNTA CANOA",
    "address": "Corregimiento Punta Canoa"
  },
  {
    "city": "Cartagena",
    "state": "Cartagena",
    "latitude": -75.574441,
    "longitude": 10.378160,
    "name": "PS TIERRA BOMBA",
    "address": "ISLA TIERRA BOMBA"
  },
  {
    "city": "Cartagena",
    "state": "Cartagena",
    "latitude": -75.476328,
    "longitude": 10.361126,
    "name": "PUESTO DE SALUD NELSON MANDELA",
    "address": "SECTOR SAN BERNARDO MZ E LOTE 22"
  },
  {
    "city": "Cartagena",
    "state": "Cartagena",
    "latitude": -75.478904,
    "longitude": 10.391937,
    "name": "S. TOTAL EPS S.A UUBC SANTA LUCIA",
    "address": "SANTA LUCIA SECTOR PROVIDENCIA No. 31-71-139"
  },
  {
    "city": "Cartagena",
    "state": "Cartagena",
    "latitude": -75.272669,
    "longitude": 10.444325,
    "name": "UOLJIV- S Z",
    "address": "UOL JOSE ISABEL VILLAREAL TORRES SEDE ZIPACOA"
  },
  {
    "city": "Cartagena",
    "state": "Cartagena",
    "latitude": -75.273207,
    "longitude": 10.443950,
    "name": "UOL JOSE ISABEL VILLAREAL TORRES SEDE ZIPACOA",
    "address": "PLAZA PRINCIPAL FRENTE A LA IGLESIA"
  },
  {
    "city": "Cartagena",
    "state": "Cartagena",
    "latitude": -75.325624,
    "longitude": 10.568553,
    "name": "UOL MIGUEL ANTONI AYOLA CONEO DE CLEMENCIA SEDE",
    "address": "CALLE GRANDE"
  },
  {
    "city": "Cartagena",
    "state": "Cartagena",
    "latitude": -75.476149,
    "longitude": 10.379193,
    "name": "U. H. San Fernando",
    "address": "San Fernando CARRERA 81 CALLE 15"
  }







]


